{"response":[{"lat": "18.6166667", "city": "Carrefour Canot", "sentiment": 0.6218960499999999, "long": "-74.0833333"},
{"lat": "10.0166667", "city": "Taala", "sentiment": 0.8533823222222221, "long": "15.0833333"},
{"lat": "34.667213", "city": "Xiasuchuan", "sentiment": 0.48667976799999996, "long": "107.778728"},
{"lat": "34.200044", "city": "Ghamai", "sentiment": 0.42071874285714284, "long": "71.502315"},
{"lat": "19.7666667", "city": "Satse", "sentiment": 0.4723567599, "long": "94.0833333"},
{"lat": "21.554814", "city": "Hoi Ke", "sentiment": 0.738760788888889, "long": "105.487079"},
{"lat": "53.033333", "city": "Kuchugay", "sentiment": 0.671218, "long": "119.933333"},
{"lat": "3.0397", "city": "Gunung Juhar", "sentiment": 0.7221778750000001, "long": "98.2856"},
{"lat": "22.9333333", "city": "Kutabpur", "sentiment": 0.66085146125, "long": "90.3833333"},
{"lat": "32.0761111", "city": "Lees", "sentiment": 0.8197219800000001, "long": "-101.4863889"},
{"lat": "13.6", "city": "Dan Dounia", "sentiment": 0.8008033900000001, "long": "7.5666667"},
{"lat": "18.910642", "city": "Amphoe Mae Rim", "sentiment": 0.8504377111111111, "long": "98.948007"},
{"lat": "7.035855", "city": "Tarling", "sentiment": 0.73607142, "long": "121.912685"},
{"lat": "22.816667", "city": "Timba Road Junction", "sentiment": 0.82791359, "long": "73.383333"},
{"lat": "-14.0", "city": "Mulimba", "sentiment": 0.37857163746, "long": "24.65"},
{"lat": "4.8333333", "city": "Mboula", "sentiment": 0.459046936, "long": "23.3166667"},
{"lat": "22.2", "city": "Coc Kang", "sentiment": 0.7289881599999999, "long": "105.966667"},
{"lat": "29.574475", "city": "Ihdarne", "sentiment": 0.59881591, "long": "-9.313262"},
{"lat": "43.118753", "city": "Ciga", "sentiment": 0.4237130029999999, "long": "-1.571005"},
{"lat": "5.583333", "city": "Kampong Bukit Chengat", "sentiment": 0.6788104575, "long": "102.166667"},
{"lat": "21.05", "city": "Vador", "sentiment": 0.681413127, "long": "-76.2166667"},
{"lat": "52.2569444", "city": "Clashganny", "sentiment": 0.8239693499999999, "long": "-7.8069444"},
{"lat": "36.8175", "city": "Jerablus", "sentiment": 0.5596636700000001, "long": "38.0111111"},
{"lat": "42.268692", "city": "Xiaomawei", "sentiment": 0.5542851399000001, "long": "122.524385"},
{"lat": "43.4125", "city": "Khristo Mikhaylov", "sentiment": 0.8679426, "long": "23.225"},
{"lat": "45.6569444", "city": "Prestava Grande", "sentiment": 0.7146413139999999, "long": "14.1852778"},
{"lat": "-5.5166667", "city": "Ushongo Mtoni", "sentiment": 0.3872949666666667, "long": "38.9666667"},
{"lat": "24.443566", "city": "Higawa", "sentiment": 0.6759787399999999, "long": "122.98125"},
{"lat": "-7.788056", "city": "Tinjon", "sentiment": 0.7607142222222222, "long": "110.492778"},
{"lat": "31.545533", "city": "Douar Bou Zid", "sentiment": 0.8208690000000001, "long": "-8.225362"},
{"lat": "54.349257", "city": "Prigori", "sentiment": 0.86380435, "long": "38.180957"},
{"lat": "41.6808333", "city": "Babuna", "sentiment": 0.73106381, "long": "21.8027778"},
{"lat": "43.074301", "city": "Fiagdon", "sentiment": 0.69288393, "long": "44.437285"},
{"lat": "-2.9833333", "city": "Nilolo", "sentiment": 0.7333034, "long": "10.85"},
{"lat": "40.813547", "city": "Carrascal de Sanchiricones", "sentiment": 0.90375625, "long": "-5.873924"},
{"lat": "48.783333", "city": "Fulford Harbour", "sentiment": 0.494570153, "long": "-123.483333"},
{"lat": "26.520833", "city": "Xiaohe Zhen", "sentiment": 0.6114719444444445, "long": "106.696111"},
{"lat": "-3.1802778", "city": "Kamusenyi", "sentiment": 0.6213966266666667, "long": "30.0336111"},
{"lat": "58.441807", "city": "Ryakintsy", "sentiment": 0.4341417, "long": "51.616015"},
{"lat": "-1.9666667", "city": "Mara Yiri", "sentiment": 0.4979684555555555, "long": "146.8"},
{"lat": "61.678889", "city": "Samza", "sentiment": 0.75169618, "long": "64.481944"},
{"lat": "12.5751", "city": "Canamalag", "sentiment": 0.5385350536, "long": "123.9616"},
{"lat": "11.428714", "city": "Yamahain", "sentiment": 0.8544702300000001, "long": "-72.401199"},
{"lat": "51.140934", "city": "Bakowa Gorna", "sentiment": 0.765590229, "long": "19.866931"},
{"lat": "19.845222", "city": "Ban Rim Lao Santi", "sentiment": 0.5964055440000001, "long": "99.815722"},
{"lat": "53.733333", "city": "Westerhamm", "sentiment": 0.44496661500000007, "long": "9.033333"},
{"lat": "52.35", "city": "Ratajczyce", "sentiment": 0.3229972709999999, "long": "23.6166667"},
{"lat": "39.878836", "city": "Kirlangic", "sentiment": 0.6498281377777777, "long": "33.793004"},
{"lat": "29.801", "city": "Gyarong", "sentiment": 0.5789563277777778, "long": "91.301"},
{"lat": "44.3816667", "city": "Parnjace", "sentiment": 0.9279518, "long": "18.6161111"},
{"lat": "3.9833333", "city": "Olela", "sentiment": 0.7519544333333333, "long": "11.8166667"},
{"lat": "51.833333", "city": "Wola Trzydnicka Agatowka", "sentiment": 0.8556958, "long": "22.083333"},
{"lat": "34.467754", "city": "Fumazhuang", "sentiment": 0.01641609, "long": "107.793968"},
{"lat": "-4.066667", "city": "Kihungwe", "sentiment": 0.55183145, "long": "28.166667"},
{"lat": "-15.8", "city": "Zapocoz", "sentiment": 0.8407647, "long": "-63.0666667"},
{"lat": "18.266667", "city": "Sathan", "sentiment": 0.6408274529999999, "long": "100.716667"},
{"lat": "12.7333333", "city": "Karnoy", "sentiment": 0.7666605500000001, "long": "20.3"},
{"lat": "23.9666667", "city": "Pantaishe", "sentiment": 0.628879321, "long": "121.1"},
{"lat": "-9.45", "city": "Araro Puti", "sentiment": 0.66996553875, "long": "159.9333333"},
{"lat": "35.7144444", "city": "Borax", "sentiment": 0.662845401, "long": "-115.3397222"},
{"lat": "19.416667", "city": "Dai Thuy", "sentiment": 0.7497259399999999, "long": "105.75"},
{"lat": "-8.2675", "city": "Krajan Dua Karangduren", "sentiment": 0.9877094, "long": "113.4973"},
{"lat": "33.406981", "city": "Corbeg", "sentiment": 0.62016968, "long": "67.321566"},
{"lat": "55.795833", "city": "Ammala", "sentiment": 0.6641313799999999, "long": "91.092778"},
{"lat": "35.614167", "city": "Moranak", "sentiment": 0.5451532741, "long": "52.143333"},
{"lat": "29.470878", "city": "Uro", "sentiment": 0.6175646850000001, "long": "66.064697"},
{"lat": "9.2833333", "city": "Fabin", "sentiment": 0.5702542, "long": "28.15"},
{"lat": "54.00439", "city": "Upalten", "sentiment": 0.8651854, "long": "21.867668"},
{"lat": "34.8666667", "city": "Bayt al Jabal", "sentiment": 0.5731704666666666, "long": "35.9666667"},
{"lat": "6.6333333", "city": "Battinga", "sentiment": 0.6324634699999999, "long": "20.5666667"},
{"lat": "33.081797", "city": "Delal", "sentiment": 0.55323692, "long": "49.759754"},
{"lat": "36.4842", "city": "Tokhung", "sentiment": 0.48814186666666665, "long": "127.1688"},
{"lat": "3.0393", "city": "Raja Maligas 2", "sentiment": 0.80334975, "long": "99.3284"},
{"lat": "26.118625", "city": "Rupshi", "sentiment": 0.5273708555555556, "long": "89.925725"},
{"lat": "41.9947222", "city": "Tsalugelaantkari", "sentiment": 0.4943907, "long": "44.9194444"},
{"lat": "31.299722", "city": "Kamaske", "sentiment": 0.6241631333333334, "long": "74.136389"},
{"lat": "23.1833333", "city": "Man Namlet", "sentiment": 0.6599500699999998, "long": "98.4166667"},
{"lat": "48.37", "city": "Deriglazov", "sentiment": 0.7038803375, "long": "40.1025"},
{"lat": "28.897543", "city": "Longjiaqiao", "sentiment": 0.8093739, "long": "104.892369"},
{"lat": "-12.1", "city": "Cochahuayco", "sentiment": 0.9313933200000001, "long": "-76.5"},
{"lat": "-13.4833333", "city": "Moses", "sentiment": 0.558366272, "long": "34.35"},
{"lat": "32.041179", "city": "Yuanfeng", "sentiment": 0.5196175, "long": "106.906674"},
{"lat": "9.4833333", "city": "Bambugu", "sentiment": 0.78497915, "long": "-11.5166667"},
{"lat": "7.7833333", "city": "Kumfa", "sentiment": 0.8155453666666665, "long": "-1.2333333"},
{"lat": "39.8333333", "city": "Glen Easton", "sentiment": 0.8762904600000001, "long": "-80.6483333"},
{"lat": "50.533333", "city": "Leumont", "sentiment": 0.7122437189999999, "long": "5.216667"},
{"lat": "50.327267", "city": "Tuchom", "sentiment": 0.8340854222222224, "long": "15.141511"},
{"lat": "-6.2", "city": "Kwim", "sentiment": 0.61589699, "long": "143.5166667"},
{"lat": "-16.9219444", "city": "Latifo", "sentiment": 0.5902519444444444, "long": "38.4897222"},
{"lat": "44.700918", "city": "Maine-Chevalier", "sentiment": 0.5476987166666667, "long": ".537634"},
{"lat": "50.003236", "city": "Gumniska", "sentiment": 0.78614375, "long": "21.407709"},
{"lat": "5.072", "city": "Lhok Nibong", "sentiment": 0.8188885, "long": "97.5227"},
{"lat": "6.214367", "city": "Kampung Baharu Mek Mas", "sentiment": 0.487593589, "long": "102.238296"},
{"lat": "48.394049", "city": "Nizhnesolonovskiy", "sentiment": 0.01497581, "long": "42.857338"},
{"lat": "45.002222", "city": "Lacarak", "sentiment": 0.6002106455555557, "long": "19.568611"},
{"lat": "35.676111", "city": "Leisizhuang", "sentiment": 0.8800964, "long": "110.274444"},
{"lat": "57.295808", "city": "Lynga", "sentiment": 0.575916498, "long": "53.029088"},
{"lat": "46.85", "city": "Gerhatdulo", "sentiment": 0.1023482, "long": "20.783333"},
{"lat": "22.9", "city": "Chuko", "sentiment": 0.5979521, "long": "120.4333333"},
{"lat": "4.3833333", "city": "Mengoa", "sentiment": 0.6595121620000001, "long": "12.4"},
{"lat": "49.55", "city": "Sippersfeld", "sentiment": 0.79712451, "long": "7.933333"},
{"lat": "-8.5926", "city": "Banjar Tameng", "sentiment": 0.585640656, "long": "115.2806"},
{"lat": "21.266667", "city": "Xe Thuong", "sentiment": 0.5308578866666667, "long": "106.083333"},
{"lat": "46.6", "city": "Gaspardulo", "sentiment": 0.615272443, "long": "19.483333"},
{"lat": "5.783333", "city": "Kampong Gong Darat Lapang", "sentiment": 0.746074639, "long": "102.483333"},
{"lat": "31.633663", "city": "Gal'on", "sentiment": 0.78986771, "long": "34.847584"},
{"lat": "34.955997", "city": "Dumba", "sentiment": 0.3837609768, "long": "68.964642"},
{"lat": "35.0133333", "city": "Smacker", "sentiment": 0.72638822, "long": "-94.6644444"},
{"lat": "-33.816667", "city": "Jacup", "sentiment": 0.5701767799999999, "long": "119.266667"},
{"lat": "44.570354", "city": "Capdenac-Gare", "sentiment": 0.7832647111111112, "long": "2.082381"},
{"lat": "7.016667", "city": "Tyogbenda", "sentiment": 0.4085533, "long": "8.8"}]}
